{
  "cities": [
    {
      "id": 15,
      "name": "Tallinn",
      "lat": 59.436962,
      "lng": 24.753574
    },
    {
      "id": 16,
      "name": "Riga",
      "lat": 56.949650,
      "lng": 24.105186
    },
    {
      "id": 12,
      "name": "Helsinki",
      "lat": 60.169857,
      "lng": 24.938379
    },
    {
      "id": 2,
      "name": "Stockholm",
      "lat": 59.329323,
      "lng": 18.068581
    },
    {
      "id": 44,
      "name": "Vilnius",
      "lat": 54.687157,
      "lng": 25.279652
    }
  ]
}